{
"type": "FeatureCollection",
"name": "manta_pet_puntos_20250126",
"crs": { "type": "name", "properties": { "name": "urn:ogc:def:crs:OGC:1.3:CRS84" } },
"features": [
{ "type": "Feature", "properties": { "id_punto": 1.0, "nom_punto": "Estacionamiento frente a Movilidad E.P.", "nom_zona": "Parque Colinas de Rocafuerte", "parroquia": "Los Esteros" }, "geometry": { "type": "Point", "coordinates": [ -80.694436180139476, -0.95554471168443 ] } },
{ "type": "Feature", "properties": { "id_punto": 2.0, "nom_punto": "Exterior de la U.E. Josefa Mendoza de Mora", "nom_zona": "Parque Colinas de Rocafuerte", "parroquia": "Los Esteros" }, "geometry": { "type": "Point", "coordinates": [ -80.700021411335698, -0.954489691206489 ] } },
{ "type": "Feature", "properties": { "id_punto": 3.0, "nom_punto": "Cancha El Paraíso", "nom_zona": "Parque Colinas de Rocafuerte", "parroquia": "Los Esteros" }, "geometry": { "type": "Point", "coordinates": [ -80.699469491521924, -0.956107591298946 ] } },
{ "type": "Feature", "properties": { "id_punto": 4.0, "nom_punto": "Federación de Barrios de Los Esteros", "nom_zona": "Parque Colinas de Rocafuerte", "parroquia": "Los Esteros" }, "geometry": { "type": "Point", "coordinates": [ -80.704379521290335, -0.951798060165445 ] } },
{ "type": "Feature", "properties": { "id_punto": 5.0, "nom_punto": "Cancha de Jorgiño", "nom_zona": "Parque Colinas de Rocafuerte", "parroquia": "Los Esteros" }, "geometry": { "type": "Point", "coordinates": [ -80.703802453875682, -0.954227271839078 ] } },
{ "type": "Feature", "properties": { "id_punto": 6.0, "nom_punto": "Mercado de Los Esteros", "nom_zona": "Cancha municipal La Victoria", "parroquia": "Los Esteros" }, "geometry": { "type": "Point", "coordinates": [ -80.706878825710618, -0.952053878042158 ] } },
{ "type": "Feature", "properties": { "id_punto": 7.0, "nom_punto": "Liga Deportiva Barrial de Manta", "nom_zona": "Cancha municipal La Victoria", "parroquia": "Los Esteros" }, "geometry": { "type": "Point", "coordinates": [ -80.706972234845878, -0.954996915090775 ] } },
{ "type": "Feature", "properties": { "id_punto": 8.0, "nom_punto": "Bazar y Papelería MyM", "nom_zona": "Parque y cancha municipal Cristo Rey", "parroquia": "Tarqui" }, "geometry": { "type": "Point", "coordinates": [ -80.711331301879511, -0.954864832802769 ] } },
{ "type": "Feature", "properties": { "id_punto": 9.0, "nom_punto": "Esquina del cementerio Jardines de Paz", "nom_zona": "Parque y cancha municipal Cristo Rey", "parroquia": "Tarqui" }, "geometry": { "type": "Point", "coordinates": [ -80.712207553074961, -0.956059989165304 ] } },
{ "type": "Feature", "properties": { "id_punto": 10.0, "nom_punto": "Exterior de la U.E. Gil Delgado Pinto", "nom_zona": "Parque y cancha municipal Cristo Rey", "parroquia": "Tarqui" }, "geometry": { "type": "Point", "coordinates": [ -80.711277822221049, -0.95759013776026 ] } },
{ "type": "Feature", "properties": { "id_punto": 11.0, "nom_punto": "Explanada de la Calle 104 y Av. 113", "nom_zona": "Parque y cancha municipal Cristo Rey", "parroquia": "Tarqui" }, "geometry": { "type": "Point", "coordinates": [ -80.714997436825868, -0.955068866008162 ] } },
{ "type": "Feature", "properties": { "id_punto": 12.0, "nom_punto": "Exterior de la U.E. Jorge Washington", "nom_zona": "Cancha de tierra de la Calle J6", "parroquia": "Tarqui" }, "geometry": { "type": "Point", "coordinates": [ -80.71941551363291, -0.959887579952121 ] } },
{ "type": "Feature", "properties": { "id_punto": 13.0, "nom_punto": "Posterior de la U.E. Pedro Atanasio Balda", "nom_zona": "Cancha Bellavista", "parroquia": "Tarqui" }, "geometry": { "type": "Point", "coordinates": [ -80.724957263000732, -0.957681658704165 ] } },
{ "type": "Feature", "properties": { "id_punto": 14.0, "nom_punto": "Cancha de la Av. de la Cultura y Av. 19", "nom_zona": "Parque La Dolorosa", "parroquia": "Manta" }, "geometry": { "type": "Point", "coordinates": [ -80.724785931419007, -0.953843772914257 ] } },
{ "type": "Feature", "properties": { "id_punto": 15.0, "nom_punto": "Tienda Productos del Campo", "nom_zona": "Parque La Dolorosa", "parroquia": "Manta" }, "geometry": { "type": "Point", "coordinates": [ -80.723348517052941, -0.950094337226547 ] } },
{ "type": "Feature", "properties": { "id_punto": 16.0, "nom_punto": "Peluquería de mascotas Pelucan", "nom_zona": "Parque La Dolorosa", "parroquia": "Manta" }, "geometry": { "type": "Point", "coordinates": [ -80.725479499100672, -0.951897532018831 ] } },
{ "type": "Feature", "properties": { "id_punto": 17.0, "nom_punto": "Estacionamiento de la Calle 10 y Av. 5", "nom_zona": "Parque La Dolorosa", "parroquia": "Manta" }, "geometry": { "type": "Point", "coordinates": [ -80.722551414454884, -0.947945516040169 ] } },
{ "type": "Feature", "properties": { "id_punto": 18.0, "nom_punto": "Exterior del edificio Mateliz", "nom_zona": "Parque La Dolorosa", "parroquia": "Manta" }, "geometry": { "type": "Point", "coordinates": [ -80.725220646502549, -0.95028889070513 ] } },
{ "type": "Feature", "properties": { "id_punto": 19.0, "nom_punto": "Frente a la U.E. Stella Maris", "nom_zona": "Parque Córdova", "parroquia": "Manta" }, "geometry": { "type": "Point", "coordinates": [ -80.72456810839239, -0.945108126243993 ] } },
{ "type": "Feature", "properties": { "id_punto": 20.0, "nom_punto": "Exterior de la U.E. Manuela Cañizares", "nom_zona": "Parque Córdova", "parroquia": "Manta" }, "geometry": { "type": "Point", "coordinates": [ -80.727018742989827, -0.943966974419151 ] } },
{ "type": "Feature", "properties": { "id_punto": 21.0, "nom_punto": "Exterior de la agencia naviera BOW S.A.", "nom_zona": "Parque Los Algarrobos", "parroquia": "Manta" }, "geometry": { "type": "Point", "coordinates": [ -80.731313223572968, -0.942874391985104 ] } },
{ "type": "Feature", "properties": { "id_punto": 22.0, "nom_punto": "Iglesia Hay Vida en Jesús", "nom_zona": "Parque Umiña (Mamma Rosa)", "parroquia": "Manta" }, "geometry": { "type": "Point", "coordinates": [ -80.734704781759845, -0.944889107997029 ] } },
{ "type": "Feature", "properties": { "id_punto": 23.0, "nom_punto": "Av. Flavio Reyes y Av. Universitaria 1", "nom_zona": "Parque Umiña (Mamma Rosa)", "parroquia": "Manta" }, "geometry": { "type": "Point", "coordinates": [ -80.740737649879947, -0.944393207184989 ] } },
{ "type": "Feature", "properties": { "id_punto": 24.0, "nom_punto": "Restaurante Las Velas", "nom_zona": "Parque Cdla. Universitaria", "parroquia": "Manta" }, "geometry": { "type": "Point", "coordinates": [ -80.743382419311047, -0.945639297239974 ] } },
{ "type": "Feature", "properties": { "id_punto": 25.0, "nom_punto": "Ingreso a Piedra Larga", "nom_zona": "sin zona segura", "parroquia": "San Mateo" }, "geometry": { "type": "Point", "coordinates": [ -80.775826734513274, -0.954392856211634 ] } },
{ "type": "Feature", "properties": { "id_punto": 26.0, "nom_punto": "Ingreso a la Urb. Ciudad del Mar", "nom_zona": "sin zona segura", "parroquia": "San Mateo" }, "geometry": { "type": "Point", "coordinates": [ -80.771376226802047, -0.956068534767086 ] } },
{ "type": "Feature", "properties": { "id_punto": 27.0, "nom_punto": "Av. San Mateo y Calle San Patricio", "nom_zona": "Estacionamiento de la UPC San Mateo", "parroquia": "San Mateo" }, "geometry": { "type": "Point", "coordinates": [ -80.810539367752455, -0.959609347029254 ] } },
{ "type": "Feature", "properties": { "id_punto": 28.0, "nom_punto": "Centro turístico San Mateo", "nom_zona": "Estacionamiento de la UPC San Mateo", "parroquia": "San Mateo" }, "geometry": { "type": "Point", "coordinates": [ -80.811306231637275, -0.96045667578871 ] } },
{ "type": "Feature", "properties": { "id_punto": 29.0, "nom_punto": "Ingreso al mirador de la Av. Manta", "nom_zona": "Cancha Los Laureles", "parroquia": "San Mateo" }, "geometry": { "type": "Point", "coordinates": [ -80.811701827672579, -0.958149651785434 ] } },
{ "type": "Feature", "properties": { "id_punto": 30.0, "nom_punto": "Callejón del barrio La Paz", "nom_zona": "sin zona segura", "parroquia": "San Mateo" }, "geometry": { "type": "Point", "coordinates": [ -80.814028621957689, -0.961424874669804 ] } },
{ "type": "Feature", "properties": { "id_punto": 31.0, "nom_punto": "Curva en la autopista a Sta. Marianita", "nom_zona": "sin zona segura", "parroquia": "San Mateo" }, "geometry": { "type": "Point", "coordinates": [ -80.825008728086218, -0.962468089885618 ] } },
{ "type": "Feature", "properties": { "id_punto": 32.0, "nom_punto": "Frente a Brisa Pacífica", "nom_zona": "sin zona segura", "parroquia": "Santa Marianita" }, "geometry": { "type": "Point", "coordinates": [ -80.836571341863646, -0.97281033535049 ] } },
{ "type": "Feature", "properties": { "id_punto": 33.0, "nom_punto": "Restaurante Cabañita Jondar", "nom_zona": "sin zona segura", "parroquia": "Santa Marianita" }, "geometry": { "type": "Point", "coordinates": [ -80.839443866924142, -0.978392286393376 ] } },
{ "type": "Feature", "properties": { "id_punto": 34.0, "nom_punto": "Camino transversal a la Calle principal", "nom_zona": "sin zona segura", "parroquia": "Santa Marianita" }, "geometry": { "type": "Point", "coordinates": [ -80.843713175541694, -0.984108754737568 ] } },
{ "type": "Feature", "properties": { "id_punto": 35.0, "nom_punto": "Calle prin. e ingreso a U.E. Sta. Marianita", "nom_zona": "Cancha de la U.E. Sta. Marianita", "parroquia": "Santa Marianita" }, "geometry": { "type": "Point", "coordinates": [ -80.847810488693312, -0.992962630931268 ] } },
{ "type": "Feature", "properties": { "id_punto": 36.0, "nom_punto": "Callejón de Punta La Barca", "nom_zona": "sin zona segura", "parroquia": "Santa Marianita" }, "geometry": { "type": "Point", "coordinates": [ -80.850085002272479, -0.989962401119999 ] } },
{ "type": "Feature", "properties": { "id_punto": 37.0, "nom_punto": "Av. Sánchez y Calle La Barca", "nom_zona": "sin zona segura", "parroquia": "Santa Marianita" }, "geometry": { "type": "Point", "coordinates": [ -80.850956990452786, -0.992113129464162 ] } },
{ "type": "Feature", "properties": { "id_punto": 38.0, "nom_punto": "Ingreso a la playa de Ligüiqui", "nom_zona": "sin zona segura", "parroquia": "San Lorenzo" }, "geometry": { "type": "Point", "coordinates": [ -80.88141398947073, -1.026840426230656 ] } },
{ "type": "Feature", "properties": { "id_punto": 39.0, "nom_punto": "Calle B y Av. 10 de Agosto", "nom_zona": "Parque 10 de Agosto", "parroquia": "San Lorenzo" }, "geometry": { "type": "Point", "coordinates": [ -80.906072399470546, -1.063408478970947 ] } },
{ "type": "Feature", "properties": { "id_punto": 40.0, "nom_punto": "Centro de Rehab. Física de San Lorenzo", "nom_zona": "Parque 10 de Agosto", "parroquia": "San Lorenzo" }, "geometry": { "type": "Point", "coordinates": [ -80.905455539914328, -1.06527800846337 ] } },
{ "type": "Feature", "properties": { "id_punto": 41.0, "nom_punto": "Centro de Salud de San Lorenzo", "nom_zona": "Plazoleta de la Iglesia San Lorenzo", "parroquia": "San Lorenzo" }, "geometry": { "type": "Point", "coordinates": [ -80.905293987076291, -1.066686156291407 ] } },
{ "type": "Feature", "properties": { "id_punto": 42.0, "nom_punto": "Ingreso a San Lorenzo", "nom_zona": "Estación de bomberos San Lorenzo", "parroquia": "San Lorenzo" }, "geometry": { "type": "Point", "coordinates": [ -80.904974033467383, -1.071306096871555 ] } },
{ "type": "Feature", "properties": { "id_punto": 43.0, "nom_punto": "Iglesia Nuestra Sra. del Rosario", "nom_zona": "Cancha municipal Las Piñas", "parroquia": "San Lorenzo" }, "geometry": { "type": "Point", "coordinates": [ -80.897272002659193, -1.09149197452279 ] } },
{ "type": "Feature", "properties": { "id_punto": 44.0, "nom_punto": "Exterior de la U.E. Eloy Alfaro", "nom_zona": "Cancha municipal Las Piñas", "parroquia": "San Lorenzo" }, "geometry": { "type": "Point", "coordinates": [ -80.895625643570142, -1.093498948664017 ] } },
{ "type": "Feature", "properties": { "id_punto": 45.0, "nom_punto": "Capilla 24 de Mayo", "nom_zona": "Cancha sintética ingreso a Sta. Rosa", "parroquia": "San Lorenzo" }, "geometry": { "type": "Point", "coordinates": [ -80.88720390580707, -1.121754703401842 ] } },
{ "type": "Feature", "properties": { "id_punto": 46.0, "nom_punto": "Calle prin. e ingreso a U.E. Robert I. Mero", "nom_zona": "Cancha de la Iglesia Sta. Rosa", "parroquia": "San Lorenzo" }, "geometry": { "type": "Point", "coordinates": [ -80.886313931276206, -1.124830737434754 ] } },
{ "type": "Feature", "properties": { "id_punto": 9001.0, "nom_punto": "Cancha 15 de Septiembre", "nom_zona": "sin zona segura", "parroquia": "Tarqui" }, "geometry": { "type": "Point", "coordinates": [ -80.729219254872703, -0.961297826397841 ] } },
{ "type": "Feature", "properties": { "id_punto": 9002.0, "nom_punto": "Parque Las Brisas", "nom_zona": "sin zona segura", "parroquia": "Los Esteros" }, "geometry": { "type": "Point", "coordinates": [ -80.700860806405714, -0.964881834434338 ] } },
{ "type": "Feature", "properties": { "id_punto": 9003.0, "nom_punto": "Cancha María Auxiliadora", "nom_zona": "sin zona segura", "parroquia": "Tarqui" }, "geometry": { "type": "Point", "coordinates": [ -80.710828044408629, -0.969310247995345 ] } }
]
}
